NAME,CATEGORIES,DESCRIPTION,LATITUDE,RATING,LONGITUDE,DESTINATION,GENERAL_LOCATION,ID,split
"""White Eagle Cars"" - London Airport & Seaport Transfers","['Transportation', 'Taxis & Shuttles']","""White Eagle Cars"" London Airport Minicab Transfers - Heathrow Airport / Gatwick Airport / Stansted Airport / Luton Airport / City Airport / Southend on Sea Airport / London Excel / All Day Trips / Any destination in UK and EU / Seaports / Long Distances / Theme Park Trips / Castle Trips / Garden Trips / Seaport Transfers - London Tilbury / Dover / Southampton / Harwich / Portsmouth / Poole / Plymouth",51.506836,5.0,0.180288,London,,10492167,train
Cathedral of St. Hedwig - Domgemeinde St. Hedwig,"['Sights & Landmarks', 'Churches & Cathedrals']",,52.51536,4.0,13.39525,Berlin,,2144937,train
Bam Karaoke Box Recoletos,"['Nightlife', 'Karaoke Bars']",,40.42152,5.0,-3.689031,Madrid,,18941277,train
Lustgarten,"['Nature & Parks', 'Parks', 'Gardens']",,52.51911,4.0,13.400392,Berlin,,8674187,train
Panik Room,"['Fun & Games', 'Room Escape Games', 'Game & Entertainment Centers']","What if you become ghost hunters? Welcome to the panik room, the first paranormal adventure where you have to explore a haunted house as a team. Your mission: to free the house from the curse by investigating the fate of the last inhabitants. Experience a unique sensory adventure where communication and trust are the key to success.",48.864403,5.0,2.340398,Paris,,17464830,train
OBA Library of Amsterdam,"['Traveler Resources', 'Libraries']",,52.375748,4.5,4.908243,Amsterdam,,1499038,train
Houses of Parliament,"['Sights & Landmarks', 'Government Buildings', 'Architectural Buildings', 'Historic Sites']","Most of this iconic building was built in the mid-19th century following a devastating fire in 1834. Westminster Hall survived the fire and dates from 1097. All visits are currently suspended. For the latest updates and online content, please go to the website and sign-up to the e-newsletter.",51.49951,4.5,-0.124787,London,"Parliament Square, SW1A 0AA",211708,train
Port Des Torrent,"['Nature & Parks', 'Outdoor Activities', 'Beaches']",,38.966473,4.0,1.2682,Ibiza,,8179566,train
Fellsfjara,"['Sights & Landmarks', 'Nature & Parks', 'Outdoor Activities', 'Points of Interest & Landmarks', 'Beaches']",,64.04488,5.0,-16.177135,Iceland,,10343447,train
Novelty Automation,"['Museums', 'Specialty Museums']","A mad new collection of home made satyrical arcade machines. Practice Money Laundering; operate a nuclear reactor; meet an alien's mum; give yourself a full frisk, get divorced: and much much more. We've opened Novelty Automation because we ran out of space in our seaside arcade 'The Under The Pier show' - which is Trip Advisor's top rated attraction in Southwold, Suffolk.",51.5198,4.5,-0.1169809999999999,London,"1A Princeton Street, WC1R 4AX",8527239,train
What's On in Reykjavik,"['Traveler Resources', 'Visitor Centers']","What’s On is a Reykjavík tourist information center and magazine, providing professional service and up-to-date information to our readers and customers. We provide information on how to experience Iceland for individuals and groups. The tours we provide represent a cross-section of what is available in Iceland today. We try to always create organic choices for our clients and give the best opportunity for you to make the most of your time in Iceland. We welcome your input in the first instance so that we can help you in the best way. Our location looks to provide you with the history of Iceland as well and not just the natural attractions that you can experience. Although we can book all hotels, tours and attractions, our first priority is to provide excellent customer service and quality tourist Information.",64.14645,4.5,-21.932444,Iceland,,8460822,train
St. George and the Dragon Statue,"['Sights & Landmarks', 'Points of Interest & Landmarks', 'Monuments & Statues']",,52.51656,4.5,13.40519,Berlin,,7262696,train
Chronos One Escape Rooms,"['Fun & Games', 'Room Escape Games']",,51.450447,5.0,0.0572769999999999,London,"3 St. Mary's Place, SE9 1BL",15277154,train
Las Ramblas,"['Sights & Landmarks', 'Other', 'Neighborhoods', 'Historic Walking Areas', 'Points of Interest & Landmarks']","This pedestrian-only street is a rite of passage for first-time travelers in Barcelona. Starting from Plaça de Catalunya, amble along the boulevard where you'll find food kiosks and spot famed attractions like the Gran Teatre del Liceu theater, the Palau de la Virreina Palace, and La Boquería market—the city’s famous marketplace. Entertainment is plenty too thanks to the human statues and caricature artists, amidst other wacky street performers. If you’re not planning to shop, enjoy a jug of sangria at any of the tapas bars and people-watch away. Besides joining city tours, Barcelona’s hop-on hop-off bus is another great way to get here. – Tripadvisor",41.38063,4.0,2.17362,Barcelona,,190163,train
Quiz Room Paris Odeon,"['Fun & Games', 'Game & Entertainment Centers']",,48.8562,5.0,2.339439,Paris,"9 Rue Guenegaud, 75006",17639278,train
Quiz Room Paris La Villette,"['Fun & Games', 'Game & Entertainment Centers']","Entrez dans la Quiz Room pour un quiz riche en émotions dans un décor de plateau de télévision. Dans la Quiz Room, les questions sont accessibles, variées et surprenantes, les stratèges sauront piéger leurs adversaires et les plus rapides pourront tirer leur épingle du jeu ! Laissez-vous tenter par la première expérience de quiz comme à la télé mais avec vos amis.",48.895035,5.0,2.386989,Paris,"30 Av. Corentin Cariou, 75019 Paris, Centre Vill'up, 75019",25170466,train
Calle de las Huertas,"['Sights & Landmarks', 'Points of Interest & Landmarks']",,40.41326,4.5,-3.69675,Madrid,,7113666,train
Plaza de Santa Ana,"['Sights & Landmarks', 'Nature & Parks', 'Parks', 'Points of Interest & Landmarks']","Tapas bars and clubs line this scenic plaza, making it one of Madrid's most popular nightlife hotspots.",40.41465,4.5,-3.70134,Madrid,,190148,train
Strandbar Mitte,"['Nature & Parks', 'Outdoor Activities', 'Beaches']",,52.52253,4.0,13.394717,Berlin,,664346,train
Istanbul Airport Black Taxis,"['Transportation', 'Taxis & Shuttles']","Istanbul Airport Black Taxis is conveniently situated at Istanbul Airport terminals To guarantee your airport transfers, booking in advance is recommended. You will receive instant confirmation with reservation number. Whether it is business or leisure Istanbul Airport Taxis can ensure it's an easy experience for your Airport Transfer in Istanbul. We offer economical scheduled service to and from Istanbul airports (Train Station, Karakoy Cruise Terminal), Istanbul Airport, Sabiha Gokcen Airport and All Istanbul City Hotels. Please do not review us, if you used regular yellow street taxis or Airport yellow taxis. All our cars are black taxi vans.. We only accept booking through our website or via email.",40.9865,4.5,28.8305,Istanbul,,2557569,train
Santa Maria Francesca Delle Cinque Piaghe,"['Sights & Landmarks', 'Churches & Cathedrals']",,40.84044,4.5,14.24771,Naples,,6433683,train
Arch of Constantine,"['Sights & Landmarks', 'Monuments & Statues', 'Points of Interest & Landmarks']","The Arch of Constantine, built on the route followed by the triumphal processions, in the stretch between the Circus Maximus and the Arch of Titus, is the largest honorary arch that has come down to us. It is a synthesis of Constantine’s ideological propaganda. The arch celebrates the triumph of the emperor Constantine over Maxentius on October 28, 312 AD following the battle at the Milvian Bridge. The inscription on the central vault tells us that the monument was solemnly dedicated by the Senate to the emperor in memory of that triumph and on the occasion of the empire’s decennalia, at the start of the tenth year of his reign, on July 25, 315 AD.",41.889797,4.5,12.490657,Rome,"Via di San Gregorio, 00186",191411,train
Escape Rooms,"['Fun & Games', 'Room Escape Games']",Escape Rooms - Live escape game in London! Solve uniquely designed puzzles and get out of the locked room before your 60 minutes runs out. Want to have an unforgettable experience with lots of fun for your trip to London? Book online Now!,51.503754,4.5,-0.081602,London,"Rear of 134 Tooley Street, SE1 2TU",6991584,train
Monumental Complex Donnaregina - Diocesan Museum of Naples,"['Sights & Landmarks', 'Museums', 'Churches & Cathedrals', 'Art Museums']","At the beginning of the XVII century the Clarisse Nuns of the Monastery of Santa Maria Donnaregina decided to build a new Church better complying with the Baroque taste. The construction began in the first quarter of the century seeing the participation of the most renowned artists of the period, such as F. Solimena and L.Giordano. Prestigious masterpieces by famous artists such as A. Falcone, L. Giordano, F. Solimena, M. Stanzione, M. Pino da Siena, A. Vaccaro, C. Mellin were brought back to the Church on the occasion of the opening of the Diocese Museum, whose permanent exhibition within the Church covers a surface of nearly 3000 square mt. On display also gold and silver liturgical pieces, among the others the St. Leonzio Reliquary Cross and the St. Vincenzo Treasure. The arrangement of the works of art of the Museum follows a thematic itinerary covering the most significant subjects of Christian Faith. The wide spaces available make the Museum an ideal location to host any kind",40.853985,4.5,14.258779,Naples,"Largo Donnaregina, 80138",2046069,train
The Palace of Knossos,"['Sights & Landmarks', 'Ancient Ruins', 'Historic Sites']","This prehistoric archaeological site is located just outside the island's capital city, surrounded by beautiful hills. You'll be transported back in time as you explore the ruins and learn about the fascinating history of this ancient city. The Throne Room is a highlight, with stunning frescoes that have survived for thousands of years. Make sure to visit early in the day, especially during summer, to avoid the long lines under the hot sun. You can also get skip-the-line tickets on a walking tour, that includes commentary from a knowledgeable guide. There are also combo tickets that include the Heraklion Archaeological Museum. – Tripadvisor",35.29958,4.0,25.16049,Greece,,195896,train
Palazzo Doria Pamphilj,"['Sights & Landmarks', 'Museums', 'Art Museums', 'History Museums', 'Architectural Buildings']",Stunning palace located in a central location. Full of galleries of gorgeous paintings. Make sure to ask for the audio guide to get the full experience.,41.897903,4.5,12.481618,Rome,"Via del Corso 305, 00186",243035,train
Babylon Tours Paris,"['Tours', 'Historical & Heritage Tours', 'Private Tours', 'Walking Tours', 'City Tours', 'Cultural Tours']","You’ve seen it in the movies, but what do you really know about Paris? We’ll share its stories, secrets, and scandals with you while exploring all of the places you won’t find on your own. Wander the streets and museums of the world’s most popular city on a small group or private tour of Paris. Our English speaking guides at Babylon Tours score you priority entrance and help you skip the lines at the Louvre and Musée d’Orsay. Go beyond the Eiffel Tower and experience Paris with Babylon Tours.",48.86273,5.0,2.33482,Paris,,3205960,train
Prinzessinnengarten,"['Nature & Parks', 'Gardens']",,52.50291,4.5,13.41042,Berlin,,1866748,train
David Hasselhoff Museum,"['Museums', 'Specialty Museums']",,52.530178,4.5,13.401653,Berlin,"Weinbergsweg 1a, 10119",15144865,train
DDR Museum,"['Museums', 'Specialty Museums']","Welcome to one of the most interactive museums in the world! The DDR Museum provides a unique visitor experience, making it one of Berlin’s most popular museums. Engage all of your senses to enjoy an immersive experience of everyday life in the former East Germany. Covering a range of topics based on sound academic research – everyday life, the Berlin Wall, the Stasi and much more – our exhibition encourages its visitors to touch, feel and interact, so as to reach a fun and full understanding of the past. Explore all aspects of daily life behind the Berlin Wall, including a fully furnished DDR flat, and the workings of state and Stasi – all under one roof. Please contact us in advance of your visit when you are planning to visit with 10 persons or more. Thank you!",52.519344,4.0,13.402314,Berlin,"Karl-Liebknecht-Straße 1, Direkt an der Spree, gegenüber vom Berliner Dom, 10178",619185,train
Stussibrunnen,"['Sights & Landmarks', 'Fountains']",,47.37251,4.0,8.543901,Zurich,,21360733,train
Campi Flegrei,"['Nature & Parks', 'Hot Springs & Geysers', 'Volcanos']",,40.827065,4.0,14.141785,Naples,,246297,train
Statue of Anne Frank,"['Sights & Landmarks', 'Monuments & Statues']",,52.37443,4.0,4.8835,Amsterdam,,8668133,train
Imagine Peace Tower,"['Sights & Landmarks', 'Monuments & Statues']","The IMAGINE PEACE TOWER is a work of art conceived by the legendary artist and peace advocate Yoko Ono as a beacon to world peace. It is dedicated to the memory of John Lennon.The IMAGINE PEACE TOWER is located on Viðey Island in Kollafjörður and it's light is well visible from Reykjavík city and the capital area. Every year the IMAGINE PEACE TOWER emerges an hour after sunset between 9 October (Lennon's day of birth) and 8 December (Lennon's demise). In addition the IMAGINE PEACE TOWER emerges for one week on winter solstice, on New Year's Eve, for one week during spring equinox and few other selected dates. The ever changing weather conditions play an interesting part to the strength, intensity and brilliance of the IMAGINE PEACE TOWER’S light. During it's lighting time guided tours are avaiable called the Imagine Peace Tour. The tour is dedicated to the IMAGINE PEACE TOWER and Lennon’s and Ono’s continuing campaign for world peace. It is run by Elding with departures from Reykjavík's Old harbour. The tour unites history, art and nature is an interesting way.",64.16409,4.0,-21.858952,Iceland,,2477781,train
Craven Cottage,"['Sights & Landmarks', 'Fun & Games', 'Sports Complexes', 'Arenas & Stadiums']","Visit Craven Cottage, the iconic home of Fulham Football Club, London's oldest professional football club. Walk in the footsteps of some of the greatest players to ever play the game; marvel at the 1905 Pavilion, designed by the legendary Archibald Leitch and try a seat in the Johnny Haynes Stand, named after the clubs greatest player and England captain, the first £100 a week player. Take a seat in the changing room, imagine you are playing in the match and listening to the Head Coach give a team talk. Take your place in the dugout and players tunnel and walk in the footsteps of George Cohen, the only English right-back to win the World Cup, back in 1966. The ground is traditional, historical and fascinating. Our tours are all led by an official guide who will be delighted to show you a truly special, famous and iconic ground. We cannot wait to show you around. Come on Fulham!",51.47494,5.0,-0.22196,London,"Craven Cottage Stevenage Road, Fulham, SW6 6HH",1908604,train
Santa Anna Church,"['Sights & Landmarks', 'Architectural Buildings', 'Points of Interest & Landmarks']",,41.38563,4.5,2.17183,Barcelona,,2272433,train
Eglise Saint-Sulpice,"['Sights & Landmarks', 'Churches & Cathedrals']",Designers like Versace and Sonia Rykiel have their boutiques in this trendy Parisian neighborhood.,48.85082,4.5,2.33556,Paris,"2 Rue Palatine, 75006",208638,train
Damrak,"['Sights & Landmarks', 'Points of Interest & Landmarks']","From bars and bicycles to cafes and erotic entertainment, you can find it all on this picturesque main street of Amsterdam.",52.37519,3.5,4.89542,Amsterdam,,189380,train
Ioanna massage,"['Spas & Wellness', 'Spas']","Balance your senses with the blessings of the earth, the sea and the sky. Experience wellness through a versatile range of massage treatments. Couple massage appointments Luxury massage experience Face and body treatments by Ioanna massage",36.725296,5.0,24.44476,Greece,,20920920,train
Milea Massage Milos,"['Spas & Wellness', 'Spas']","MILEA MASSAGE is an new relaxation service at your convenience,by experienced therapists in the field of massage and wellness. MILEA MASSAGE’s services are designed to give you a holistic experience of rejuvenating body,mind and soul. The products we use have been selected for their quality,purity and beneficial properties. They are all Greek & Organic products and we are proud to say that we only",36.700684,5.0,24.490925,Greece,"Zefiria, 84800",23383926,train
Rodos Nature - Folklore Museum,"['Museums', 'Specialty Museums', ""Children's Museums"", 'History Museums']","Featuring an interesting collection of farming implements, guns, tools, ancient artefacts and much more, this cosy little museum offers an insight into the life of locals and history of Rhodes. For nature lovers, the museum also has samples of native and non-native plants which the owner will for sure share some interesting facts about.",36.253258,5.0,28.15781,Greece,"Οδός Ενωμένης Ευρώπης, 85100",10620295,train
Certosa e Museo di San Martino Napoli,"['Museums', 'Specialty Museums']","Founded in the 14th century as a Cartusian monastery, this museum contains a ceiling painting of the ""Ascension"" by Lanfranco and the ceiling fresco of the ""Triumph of Judith"" (1704) by Luca Giordano.",40.843033,4.5,14.241007,Naples,"Largo San Martino, 5, 80129",195426,train
Luxembourg Gardens,"['Nature & Parks', 'Gardens', 'Parks']","Luxembourg Gardens is a charming oasis in the heart of Paris, loved by both locals and travelers alike. With 55 acres of manicured gardens, it's the perfect place to unwind and soak up the Parisian atmosphere. You can admire the beautifully arranged flower beds, towering trees, and the grand Luxembourg Palace which overlooks the gardens. In the summer, the park is great for picnics and family outings. Be sure to check out the pétanque (lawn bowling) and chess areas, too. To learn more about the park's rich history, consider joining a walking tour of the gardens. – Tripadvisor",48.84615,4.5,2.337203,Paris,,189687,train
Crete Lux Travel,"['Transportation', 'Taxis & Shuttles']","Crete Lux Travel provides services for your group or family, from all major airports and ports in Crete to all surrounding towns, hotels, villas, famous beaches or historical monuments. Whether you are visiting Crete for a business trip, having a holiday, or even if you just need a car for a few hours, we will be glad to help you.",35.509388,5.0,24.008993,Greece,,12538998,train
NEMO Science Museum,"['Museums', 'Science Museums', ""Children's Museums""]","Expand your world at NEMO Science Museum. In the largest science museum of the Netherlands you will find proof that science and technology can be captivating for all ages. The remarkable building on top of the IJ-tunnel offers five floors of exciting hands-on activities. At NEMO you can experience the joy of science and technology, by blowing gigantic soap bubbles, watch an enormous chain reaction and experiment in a real laboratory. In a variety of exhibitions you can 'Take a journey through the mind' or learn that there is more than meets the eye when it comes to sustainable electricity and smart transportation at 'Smart Technology'. Enjoy a magnificent view over Amsterdam The creative mind behind NEMO, build in 1997, is Italian architect Renzo Piano. He had a clear vision for his design of the NEMO building, with its very own piazza 22 metres above water level. The spectacular roof terrace has a magnificent view over Amsterdam and the Eastern Docklands. You can access the roof terrace free of charge. The roof terrace and cafe in NEMO are the perfect places to sit back, relax and enjoy a drink.",52.37409,4.0,4.912154,Amsterdam,,194315,train
Museum fuer Naturkunde Berlin,"['Museums', 'Natural History Museums']","As a globally active, interdisciplinary research institute of the Leibniz Association, the Museum für Naturkunde Berlin uses its more than 30 million collection objects to explore the origins of the Earth and of life. Our exhibitions are a window on our research. Outstanding examples are the original of the rare archaeopteryx lithographica and Giraffatitan brancai. The biodiversity wall, the walk-in wet collection and the numerous special exhibitions also provide impressive insights into the museum's research work. Numerous events and educational offers such as the Science Slam, the Carl Zeiss Microscopy Centre and also Naturblick - an app on Berlin's urban nature as well as many other offers convey the latest findings and inspire people to get involved in nature themselves.",52.530243,4.5,13.379276,Berlin,"Invalidenstraße 43, 10115",816093,train
Buyuk Mecidiye Cami,"['Sights & Landmarks', 'Sacred & Religious Sites']",,41.04782,4.5,29.0266,Istanbul,"Mecidiye Mah., Ortaköy, Beşiktaş",3601365,train
The Rock Bar Ibiza,"['Nightlife', 'Bars & Clubs']","Who we are? What we do? Team Rock are a unique blend of friendly characters, full of stories and advice should you need it, with a rather special determination to make sure you leave The Rock in not quite the same state you arrived. We have a range of drinks to cater for all tastes and budgets. All our spirits are quality branded spirits and we have an extensive list of vodkas, gins, whiskeys and rums. Our cocktails are made to order using fresh fruit and high quality branded spirits. We can arrange free guest lists for clubs around the island, so let us know what your plans are and we will help all we can.",38.909294,4.5,1.439356,Ibiza,,4556463,train
Berlin Central Station,"['Sights & Landmarks', 'Architectural Buildings']",,52.52463,4.5,13.36637,Berlin,,2183304,train
Village of Lindos,"['Sights & Landmarks', 'Ancient Ruins', 'Historic Sites']","Situated on a hilltop and surrounded by an enchanting bay and pristine beach, the fishing village of Lindos is famous for both its historical and natural beauty. Unwind at mythical St. Paul’s Bay before visiting the Acropolis of Lindos, the Lindos Archaeological Museum, and other historical sites in the area. Donkey rides are a traditional mode of transport here and remain a popular way of climbing the village’s steep hills. Driving and parking can be challenging, especially in the summer, so consider taking a ferry or a catamaran to Lindos or getting a bus from Rhodes Town. – Tripadvisor",36.091774,4.5,28.086,Greece,,523855,train
Santa Maria Sopra Minerva,"['Sights & Landmarks', 'Sacred & Religious Sites', 'Historic Sites', 'Points of Interest & Landmarks', 'Churches & Cathedrals']",,41.89799,4.5,12.47771,Rome,,243025,train
Museo di Paleontologia,"['Museums', 'Science Museums']",,40.84745,4.5,14.25817,Naples,"Largo S. Marcellino, 10, 80131",11901346,train
Cafe Hoppe,"['Nightlife', 'Sights & Landmarks', 'Architectural Buildings', 'Bars & Clubs']","Established in 1670 and located in the center of a shopping, entertainment and nightlife district, this popular pub is famous for spontaneous parties that involve all patrons.",52.368786,4.5,4.888653,Amsterdam,,190169,train
Saltvik,"['Outdoor Activities', 'Horseback Riding Tours']",Saltvik offers riding experiences from short dayrides from the farm to multy day highland tours in the wilderness of Iceland.,65.99906,5.0,-17.363068,Iceland,,4323739,train
German Fountain,"['Sights & Landmarks', 'Points of Interest & Landmarks']",,40.98312,4.0,28.88592,Istanbul,,548969,train
Les Miserables London,"['Concerts & Shows', 'Performances']","The immensely poignant London classic, Les Miserables London, is one of the most successful legendary productions by Cameron Mackintosh. Boubil and Schonberg’s spectacular show, Les Miserables celebrated its silver jubilee anniversary on October 2012 and is regarded as the longest running musical of the world.",51.5118,5.0,-0.132582,London,"51 Shaftesbury Avenue, W1D 6BA",2402486,train
Hammam Pacha,"['Spas & Wellness', 'Hammams & Turkish Baths', 'Spas']","Hammam Pacha the reference steam rooms for over 35 years! "" Open the doors of well-being"" Out of nearly 700 sqm in the heart of the 6th district of Paris Open 7 days 7 , including holidays * No appointment except for depilation Exclusively for Women "" An ancestral family tradition """,48.846447,4.5,2.319362,Paris,"17 Rue Mayet, 75006",2211151,train
The Resistance,"['Fun & Games', 'Room Escape Games']",,41.38556,5.0,2.13118,Barcelona,"Carrer de Taquígraf Martí, 29, 08028",13073737,train
Kensington Gardens,"['Nature & Parks', 'Gardens', 'Parks']","Separated from Hyde Park by the Serpentine, a lake used by boaters and swimmers, this park is calmer and more peaceful than its neighbor, and features many attractions including a statue of Peter Pan, Albert Memorial and the Serpentine Art Gallery.",51.506935,4.5,-0.179232,London,"The Magazine Storeyard, Magazine Gate, W2 UH",188893,train
Sihlcity,"['Shopping', 'Shopping Malls']",,47.358376,4.0,8.523121,Zurich,,10679015,train
Bibliothek Rechtswissenschaftliches Institut,"['Sights & Landmarks', 'Traveler Resources', 'Libraries', 'Architectural Buildings']",,47.37318,4.5,8.550361,Zurich,"Rämistrasse 74, 8001",8073801,train
Piazza del Campidoglio,"['Sights & Landmarks', 'Points of Interest & Landmarks', 'Historic Walking Areas']","This beautiful square, designed by Michelangelo Buonarroti (1538-1584,) features an elliptical courtyard with a central figure sculpture.",41.89345,4.5,12.482627,Rome,,197716,train
Nupshestar,"['Outdoor Activities', 'Horseback Riding Tours']",Nupshestar – Riding Tours offer a horse rental and horse riding tours in South Iceland. In offer are short riding tours and a few days riding tours in Thjorsa Valley. We welcome any kind of experience riders. We also offer custom tours for all kind of groups.,64.0371,5.0,-20.4145,Iceland,,3226676,train
Kirche Enge,"['Sights & Landmarks', 'Churches & Cathedrals']",,47.362545,4.5,8.529767,Zurich,,3353321,train
Porta San Gennaro,"['Sights & Landmarks', 'Points of Interest & Landmarks']",,40.85879,4.0,14.26121,Naples,,6481810,train
Markthalle Im Viadukt,"['Shopping', 'Shopping Malls']",,47.387444,4.0,8.525398,Zurich,,12672136,train
Duomo di Napoli,"['Sights & Landmarks', 'Churches & Cathedrals']",,40.85208,4.5,14.25908,Naples,"Via Duomo 147, 80138",1987333,train
Oneiro Milos,"['Tours', 'Boat Tours & Water Sports', 'Outdoor Activities', 'Scuba & Snorkeling', 'Boat Tours', 'Private Tours', 'Sightseeing Tours', 'Boat Rentals']","The boat is Beneteau Oceanis 400 Sailboat, 40 feet. It has lifeboats and life vests for our safety. It is maintained and inspected every year by Lloyd’s Register. It has a toilet, hot and cold water, shade, pillows and facilities for an enjoyable trip. Also on board there are swimming accessories, masks, respirators, flippers, life jackets, beach towels and more… Traveling with “Oneiro” you have the opportunity to visit inaccessible beaches of Milos, to explore hospitable caves and to swim in clear blue waters. Enjoy the summer sun and the sea breeze by sailing with a sailboat safe in all weather conditions and comfortable for the passengers..",36.72486,5.0,24.446955,Greece,,4875379,train
In de Wildeman,"['Nightlife', 'Bars & Clubs']","A beer lover's paradise, this Amsterdam institution serves literally hundreds of different kinds.",52.376225,4.5,4.895146,Amsterdam,,539406,train
Barcelona Day Tours,"['Tours', 'City Tours', 'Cultural Tours', 'Private Tours', 'Sightseeing Tours', 'Day Trips']","We provide top quality tours with personal pick-up from your hotel, cruise port, or the airport. We offer small-group and private excursions in and around Barcelona- with skip-the-line option too! We will make sure you have an enjoyable and memorable time. We understand how important your holiday is and we are committed to making sure you are 100% happy - before, during, and after your tour with us.",41.38809,5.0,2.16726,Barcelona,,1603406,train
Colle del Gianicolo,"['Sights & Landmarks', 'Nature & Parks', 'Geologic Formations', 'Lookouts', 'Historic Sites']",A scenic hill popular for its breathtaking views of the city.,41.88859,4.5,12.4627,Rome,"Via Garibaldi, Salita di Sant'Onofrio, 00165",208560,train
Dreamy Cruises,"['Tours', 'Boat Tours & Water Sports', 'Outdoor Activities', 'Boat Tours', 'Boat Rentals', 'Private Tours', 'Nature & Wildlife Tours', 'Day Trips']","A dreamy day out ! Get ready to be amazed from the beauties of our lovely island Kefalonia ! Konstantinos our boat will sail you to beautiful destinations with amazing waters and uninhabited small islands , if you are lucky enough you may even spot some dolphins ! Swim in crystal clear waters , explore , try a rejuvenating clay bath while enjoying Greek traditional food ! At night the konstantinos turn into a romantic boat that will take you to experience the magical sunset of our island , with the option for a night swim , with live music and traditional greek buffet ! Our boat is also available for your own dreamy day out , enjoy the beauties of kefalonia with just your friends or your family on board !",38.177593,5.0,20.489807,Greece,,13335944,train
Experience Escape Room,"['Fun & Games', 'Room Escape Games']","Experience Escape Room, la nuova frontiera dell'intrattenimento. Prova le nostre ""Esperienze"" e vivrai 60 minuti in una realta parallela.",41.76205,5.0,12.46575,Rome,"Via dei Legatori, 68/70, 00128",13272903,train
Lungomare Caracciolo,"['Sights & Landmarks', 'Scenic Walking Areas', 'Historic Walking Areas']",,40.83205,4.5,14.23007,Naples,,3221195,train
Plaza de Oriente,"['Sights & Landmarks', 'Points of Interest & Landmarks']",,40.418873,4.5,-3.711986,Madrid,,592213,train
Via Margutta,"['Sights & Landmarks', 'Points of Interest & Landmarks']",,41.908855,4.5,12.479544,Rome,"Via Margutta, Via Margutta, 00187",590553,train
Zen Spa,"['Spas & Wellness', 'Spas', 'Hammams & Turkish Baths']","""ZEN is of far eastern origin, built on the importance of the present moment, enabling people to see the depth of their inner being. The instruments of this art are a harmonious body and a calm mind. Zen Spa offers you a unique opportunity to relax your body and mind at the same time. We offer a peaceful atmosphere where you can get rid of the tiredness caused by business life, the stress of city life and all the negative rhythms produced by your daily life. You will have a pleasant time in a hygienic and warm environment on your own or with your loved ones, accompanied by our treats.",41.04066,5.0,28.98497,Istanbul,"Receppaşa Cad. No. 15, 34437",14009942,train
Barcelona Pavilion,"['Sights & Landmarks', 'Architectural Buildings']",,41.37128,4.5,2.14958,Barcelona,,313686,train
San Carlo alle Quattro Fontane,"['Sights & Landmarks', 'Sacred & Religious Sites', 'Historic Sites', 'Churches & Cathedrals']",,41.901882,4.5,12.490371,Rome,,246166,train
Crack The Egg,"['Fun & Games', 'Room Escape Games']","An immersive escape game in the center of Paris. Delve into the labyrinths of History and Time, by following three breathtaking storylines, three independent chapters and become the heroes of an epic quest. Embark on an extraordinary and unusual adventure, discover our unique universes and explore our original and creative sets. Unravel the Mystery of the Egg.",48.84576,5.0,2.378185,Paris,"46 avenue daumesnil, 75012",12912290,train
Bebelplatz,"['Sights & Landmarks', 'Historic Sites']","The site of the Nazi bookburning on May 10, 1933 now houses a memorial to that event: a below-ground room lined with empty bookcases, which you see through a window set in the pavement.",52.516647,4.0,13.393942,Berlin,,274495,train
Parque del Laberint d'Horta,"['Nature & Parks', 'Parks']",,41.43845,4.5,2.148,Barcelona,,2394734,train
Schweizer Finanzmusem,"['Museums', 'Specialty Museums']","In a multimedia exhibition, the first and only financial museum in Switzerland – a country known for its banks – explains the origins of the economic system and the role of the stock market. What are stocks? How are they traded on stock exchanges? And are we heading toward a cashless future? Audio installations, interactive video sequences and touchscreen animations provide visitors to the museum with a fun way of learning more about the players, processes and developments in the Swiss financial centre. For the first time, the general public is able to see a simplified version of the training programme used to prepare stockbrokers for working on the Swiss stock exchange, while the ""stock exchange game"" lets visitors run through a day on the Swiss stock exchange.",47.391396,3.5,8.506717,Zurich,,12787180,train
Hair Cut Day,"['Spas & Wellness', 'Spas']","Peluquería en el centro de Barcelona, próxima a Paseo de Gracia. Hair Cut Day siempre garantiza las últimas tendencias en color y los mejores cortes de pelo de la temporada. En el salón de belleza podrás encontrar servicios de peluquería y estética para mujeres y para hombres. Los servicios estrella son balayage, rubios, alisado keratina, alisado japones y extensiones. Los profesionales de Hair Cut Day son de los mejores peluqueros de Barcelona especializados en color y nuevas tendencias. También destacan los servicios de manicura, pedicura y depilación",41.39372,5.0,2.16669,Barcelona,"Carrer d'Aragó, 287, 08009",17540175,train
Queen's Head,"['Nightlife', 'Gay Clubs & Bars']",A relatively new pub for a gay clientele located in Amsterdam's red light district.,52.37565,4.5,4.9004,Amsterdam,,197807,train
Memorial des Martyrs de la Deportation,"['Sights & Landmarks', 'Points of Interest & Landmarks', 'Historic Sites']","Located on the Île de la Cité, this memorial is dedicated to the 200,000 French citizens who died in concentration camps during World War II.",48.851875,4.5,2.352404,Paris,"Square de l'Île de France, 75004",190975,train
Gallery Fatih,"['Shopping', 'Gift & Specialty Shops']",09:00 21:00,41.003647,5.0,28.975327,Istanbul,"K Ayasofya Caddesi, No39/B, 34122",8743801,train
Sa Trinxa Beach Bar,"['Nightlife', 'Bars & Clubs']",,38.840088,4.0,1.393949,Ibiza,,667058,train
BAM Karaoke Box Luchana,"['Nightlife', 'Karaoke Bars']","This is BAM's 2nd address in Madrid and its biggest venue ever. Located at the heart of Chamberi's district, this BAM House spreads out onto several floors and has 2 cocktail bars and 9 private karaoke rooms. At BAM Luchana, different atmospheres come together: An open and colorful bar on the 1st floor contrasted with a darker, more mysterious underground feel f the lower floor where all the karaoke rooms are.",40.430126,5.0,-3.700264,Madrid,,24944751,train
Santorini Wine Stories,"['Food & Drink', 'Tours', 'Wine Tours & Tastings ', 'Day Trips']","Discover the most legendary wineries and traditional cellars of Santorini through a unique wine-tasting journey. Santorini Wine Stories specializes in wine and food activities, offering its guests small group and private Santorini tours to explore the wine, food and culture of Santorini and Greece. Our goal is to provide experience to Santorini travellers offering a non-touristic contact to the island, in order to discover the authentic Greek culture and Greek hospitality. We will share the local culture, traditions and history knowledge, giving you the opportunity not only to see but engage into the island's insights and discover with us every corner of Santorini. The manager George with a 10-year expertise and his team of hosts, tour guides and travel experts are looking forward to welcoming you to our tours and experiences in Santorini.",36.423275,5.0,25.428604,Greece,,13923838,train
Sokollu Mehmet Pasha Mosque,"['Sights & Landmarks', 'Sacred & Religious Sites', 'Architectural Buildings']","This l6th-century mosque, built on the slope of a hill near Sultanahmet, is one of the most beautiful examples of classical Turkish architecture in the city. Of special interest are the prayer niches and pulpit, which are covered in lovely Iznik tiles.",41.00494,4.5,28.97195,Istanbul,,296040,train
Museum Rietberg,"['Museums', 'Art Museums']","This art museum is the only art museum in Switzerland that focuses on non-European art, and has a substantial collection from Asia, America, Africa and Oceania. It's also located in one of Zürich's most beautiful parks.",47.358887,4.5,8.530035999999999,Zurich,,244436,train
Old Amsterdam Cheese Store,"['Shopping', 'Gift & Specialty Shops']","The centre of Amsterdam is home to three of Old Amsterdam Cheese Store's shops where you can buy your cheese-themed souvenir! Our cheese experts are always pleased to give you a warm welcome and your very own Amsterdam cheese experience. Besides Old Amsterdam (the best-known Dutch mature cheese), these stores also sell other types of Gouda cheese you can take with you when traveling.",52.37493,4.5,4.895292,Amsterdam,,5538742,train
Enigma - Escape Room Barcelona,"['Fun & Games', 'Room Escape Games']","You will live an only experience, positive, thrilling, at any one time than different to the rest of options of leisure in Barcelona. You can take part in ENIGMA Room Escape whenever you wish it. WILL YOU BE ABLE TO LEAVE? You will go in in a room where will find different objects, all with a sense, there is not nothing for causality. Going out will not be so easy! Organize your team and confront the enigma.",41.42523,5.0,2.17823,Barcelona,"Carrer de les Acacies 38, 08027",7305650,train
Loorenkopf Aussichtsturm,"['Sights & Landmarks', 'Observation Decks & Towers']",,47.36938,5.0,8.59814,Zurich,,10780541,train
Chiesa di Sant'Antonio a Posillipo,"['Sights & Landmarks', 'Churches & Cathedrals']",,40.82781,4.5,14.217877,Naples,"Via Minucio Felice, 13, 80122",12219978,train
Museumphoto,"['Fun & Games', 'Game & Entertainment Centers']","Step back in time over 300 years and get yourself pictured as a Dutch Golden Age masterpiece (The Milkmade, Girl with a Pearl Earring, Prince William of Orange, The Happy Drinker) or Rembrandt van Rijn in Circles. Send it home as a postcard, get it printed, or do it both. Extra: 18x23cm or 20x30cm enlargment. It takes less than 10 minutes. Since 1st November we moved to Eggertstraat 2. Only 10 meters from the Dam Square on the back side of The New Church. Take al look at our reviews! Dont miss it! Britt and Peter",52.3741,5.0,4.89237,Amsterdam,"Eggertstraat 2, 1012 NN",7314543,train
Bfit Ibiza Sports Club,"['Spas & Wellness', 'Fun & Games', 'Health/Fitness Clubs & Gyms', 'Yoga & Pilates', 'Sports Complexes']","Bfit Ibiza Sports Club, 6.000 m² of Premium Gym in Ibiza Town: extensive fitness and cardio zone, Outdoor training area, more than 450 monthly classes, Cross training box, Cycling Studio in amphitheater, Personal Trainers team, Pilates Studio, Spa, Child care, Padel, Healthy restaurant, Beauty Center, private parking and swimming pool. Bfit is your gym club in Ibiza",38.916534,4.0,1.428751,Ibiza,,5226412,train
SEA LIFE Trust Beluga Whale Sanctuary,"['Zoos & Aquariums', 'Museums', 'Nature & Parks', 'Natural History Museums', 'Aquariums']","Experience Little Grey and Little White’s journey to Iceland and get up close to live puffins and local sea creatures! The Sea Life Trust Beluga Whale Sanctuary is the world's first whale sanctuary, home to two beluga whales; Little White and Little Grey. In spring 2020, the two belugas will move to their sea sanctuary home in nearby Klettsvik Bay. The Sea Life Trust Visitor Centre located in Vestmannaeyjar Harbour opened in April 2019, relocating the former Saeheimar Aquarium and Puffin rescue centre. The centre includes information and displays relating to Little White and Little Grey's epic journey from China to Iceland, as well as a local species aquarium and resident rescued puffins. As a non-profit centre, all ticket sales support the best possible care for Little White and Little Grey and the other animals in our care.",63.4427,4.5,-20.26922,Iceland,,4341735,train
Chiesa di San Ferdinando,"['Sights & Landmarks', 'Sacred & Religious Sites', 'Churches & Cathedrals']",,40.83739,4.0,14.24841,Naples,,10297440,train
Anne Frank Zentrum,"['Museums', 'Specialty Museums']",,52.52445,4.5,13.402088,Berlin,,2147289,train
Mausoleo di Santa Costanza,"['Sights & Landmarks', 'Sacred & Religious Sites', 'Points of Interest & Landmarks', 'Churches & Cathedrals']","Originally built as a mausoleum in the fourth century for Costanza, son of Constantine, this church was transformed into a baptistery and then into a church towards the middle of the second century.",41.92249,4.5,12.51879,Rome,"Via Nomentana 349, 00162",198740,train
The Smallest House in Amsterdam,"['Shopping', 'Gift & Specialty Shops']","Discover the charm of Amsterdam's smallest house, home to a tea shop of grand proportions. Nestled within a mere 9m², Het Kleinste Huis offers an array of fresh teas, pre-packaged tea, tea accessories, and tea service sets. Our collection boasts over 200 types of tea, all 100% natural with no artificial additives. We also offer a delightful assortment of delicacies like chocolate, honey, nougat, fudge, and liqueur. Founded by Kirsten and Niels, a couple with a passion for quality tea, this family-run business has grown into a renowned tea specialist. Located in the heart of Amsterdam, our shop is easily accessible by public transport or car. So, step into our world of tea, and let the aroma of our fresh brews entice you into a unique Amsterdam experience.",52.371243,4.5,4.897689,Amsterdam,"Oude Hoogstraat 22, 1012 CE",4570596,train
Musee Carnavalet - Histoire de Paris,"['Museums', 'Specialty Museums']","The Carnavalet Museum is dedicated to the history of Paris and its inhabitants and has collections illustrating the evolution of the city from prehistory through to the present day. A vast array of works of art, relics and models are displayed in 100 or so rooms, showing the capital at various periods in history and evoking intellectual and everyday life. Magnificent restored historical scenery creates an evocative setting for a stroll through the centuries in an enriching, delightful visitor experience.",48.857853,4.5,2.363474,Paris,"16 rue des Francs-Bourgeois, 75003",188758,train
Elements Escape Room - Fuego - Atlantis - Cetro de Fuego,"['Fun & Games', 'Room Escape Games']","Elements Fire is a new experience in Barcelona. A fun and exciting room escape to spend some quality time with your friends, family or coworkers. It can fit groups between 2 and 20 people. The goal is to play, think and work together in order to escape with less than 60'. Will you be able to get out or will you be trapped in there?",41.40368,5.0,2.181055,Barcelona,,10431133,train
Beylerbeyi Palace,"['Sights & Landmarks', 'Historic Sites', 'Architectural Buildings']",This summer residence of the Sultans was also used to house foreign heads of state visiting the Ottoman capital. Several palaces had been built and demolished at this site over the years. The present structure was built between 1861-1865 and has six staterooms and 26 smaller rooms.,41.04369,4.5,29.04413,Istanbul,Abdullahağa Cad.,295479,train
Topography of Terror,"['Museums', 'Specialty Museums']","Since 1987 a permanent exhibition at the site where the headquarters of the Secret State Police, the SS and the Reich Security Main Office were located during the “Third Reich” has been providing information to the public about the most important institutions of National Socialist persecution and terror. The documentary exhibition conveys the European dimensions of the Nazi reign of terror.",52.506824,4.5,13.384102,Berlin,"Niederkirchnerstraße 8, 10963",190535,train
Jack the Ripper Tour - Discovery Tours,"['Tours', 'Walking Tours']","Join London's original Jack the Ripper CSI tour led by expert authors who have written books on the world's most infamous murder mystery. Step by step we will spirit you back in time to the cobbled streets of the Victorian East End of London where we will conduct a fact filled inspection of the Jack the Ripper murder sites in the course of which no stone will be left unturned and no shadowy recess left unvisited. Our guides John Bennett, Philip Hutchinson, Richard Jones and Lindsay Siviter are internationally recognised s being amongst the leading experts on the case and have appeared on every television documentary about Jack the Ripper. You will enjoy the full story of the murders that shook Victorian London and will have the opportunity to peruse our exclusive collection of 19th century photographs and documents that will breathe life into the atmospheric history that will surround you. So if you are looking for a Jack the Ripper tour be sure to join the expert led expedition that will bring you up to date on all the latest facts and information about the ultimate whodunit.",51.515163,5.0,-0.071837,London,"Aldgate East Underground Station, Exit 1, E1 8EY",1022180,train
Bar Monalisa Ibiza,"['Nightlife', 'Bars & Clubs', 'Gay Clubs & Bars']","Monalisa is a cocktail bar, located in the historic center of Ibiza. Open from 21:00 h to 04:00 am as a pre-disco, with animation and music. It does not serv any kind of food but just drinks and cocktails. Open during the summer from May till October. The best spot to spend a great night in ibiza city, in a nice place surrounded by people of all kind. Gayfriendly, Straightfriendly",38.90857,4.5,1.437319,Ibiza,,6514294,train
Our Lord in the Attic Museum Ons' Lieve Heer op Solder,"['Museums', 'Specialty Museums']","Hidden in the heart of the city centre of Amsterdam is a small wonder: Our Lord in the Attic Museum. Visitors will be going on a journey in a unique well-preserved canal house from the 17th century. Narrow corridors and stairs lead to historically decorated living quarters, kitchens and bedsteads, ending in what is literally the highlight of the museum: a complete church in the attic.",52.375103,4.5,4.899429,Amsterdam,,190585,train
Istanbul Akvaryum,"['Zoos & Aquariums', 'Nature & Parks', 'Aquariums']","This aquarium is home to 18 different themed zones covering various ocean and rainforest habitats over 2 floors, and home to over 1,500 species of aquatic creatures from around the world. Besides viewing and learning about marine life, catch live feeding sessions during certain hours of the day. You can also sign up for diving courses and dive with sharks in the main tank. Istanbul Akvaryum is located just southwest of Ataturk airport—inside the massive Aqua Florya Shopping Complex alongside a hotel and retail outlets. Tickets can be bought online, and it is also available on some Istanbul City passes – Tripadvisor",40.97129,4.5,28.79119,Istanbul,"Şenlikköy Mahallesi, Yeşilköy Halkalı Cad. No: 93, Florya",2198171,train
Botanical Garden,"['Nature & Parks', 'Gardens']","Affiliated with the University of Zürich, these large gardens feature a huge variety of plants from around the world.",47.35885,4.5,8.55866,Zurich,,196036,train
Smash Arena Roma,"['Fun & Games', 'Game & Entertainment Centers', 'Shooting Ranges']",,41.98501,5.0,12.504072,Rome,"Via castel giubileo 61, 00138",8535222,train
Teatro Flamenco Madrid,"['Concerts & Shows', 'Performances']","The only Flamenco Theatre of its kind in the world. For the first time ever, the magic of singing, dance and Flamenco guitar blended together on the stage of one of the most emblematic theatres of the world in the capital of Flamenco Madrid. In an intimate and welcoming atmosphere, the audience will experience close up the passion of a pure and authentic Flamenco style.",40.423214,4.5,-3.704504,Madrid,"Calle del Pez, 10, 28004",12871899,train
Hidden Games - Escape Room Zurich,"['Fun & Games', 'Room Escape Games']",,47.4024,5.0,8.61662,Zurich,"Kriesbachstrasse 4, 8600",13189994,train
We Barcelona,"['Food & Drink', 'Tours', 'Outdoor Activities', 'Bike Tours', 'Sightseeing Tours', 'Walking Tours', 'Cultural Tours', 'Food Tours']","World Experience is an agency specializing in the creation of unique activities and experiences, memorable and transformative for those travelers who want to enjoy positive emotions, and an authentic, local view of Barcelona. We want to highlight the value of those things that make it worthwhile to travel, and we offer you something as important as life itself: the desire to enjoy it. We are a passionate team with experiences and our professional team will help you live yours. Welcome to Barcelona. Welcome to WE!",41.383575,5.0,2.175404,Barcelona,"Passatge Concepción 7, 08008",3366811,train
Istanbul Modern | Istanbul Museum of Modern Art,"['Museums', 'Art Museums']","Istanbul Modern was founded in 2004 as Turkey’s first museum of modern and contemporary art. Committed to sharing Turkey’s artistic creativity and cultural identity with the local and international art worlds, the museum hosts a broad array of interdisciplinary activities. Embracing a global vision, Istanbul Modern collects works of modern and contemporary art, photography, design, architecture, and new media. Acting as an intermediary in the sharing of Turkey’s cultural identity with the international art environment, the museum supports artists in their production and efforts to form partnerships abroad. Aspiring to make art accessible to the general public, Istanbul Modern provides educational programs to art enthusiasts of all ages. Through its collections, exhibitions, and educational programs, the museum aims to instill a love of the arts in all visitors and encourage their active participation in the arts.",41.025875,4.5,28.982845,Istanbul,"Kılıç Ali Paşa Mahallesi, Tophane İskele Caddesi, No:1, 34433",555738,train
DriverinRome Transportation & Tours,"['Tours', 'Transportation', 'Day Trips', 'Taxis & Shuttles', 'Historical & Heritage Tours', 'Cultural Tours', 'Private Tours']",Driverinrome will take care of any request and make sure you have a great time in Italy!,41.92315,5.0,12.38329,Rome,,1638989,train
Deutscher Dom,"['Museums', 'History Museums']",,52.512638,4.0,13.392941,Berlin,,8262183,train
Cafe Papeneiland,"['Nightlife', 'Sights & Landmarks', 'Bars & Clubs', 'Architectural Buildings']","This atmospheric café opened in 1642, a great place for some good drinks, food and quiet conversation.",52.38046,4.5,4.88795,Amsterdam,,190168,train
Museu Nacional d'Art de Catalunya - MNAC,"['Museums', 'Specialty Museums']",An art museum containing hundreds of pieces from the medieval age to the 19th century.,41.368454,4.5,2.153715,Barcelona,,257527,train
Obelisk of Theodosius,"['Sights & Landmarks', 'Ancient Ruins']",,41.04925,4.0,28.96425,Istanbul,"Sultanahmat Meydanı, Sultanahmet, Fatih",3654346,train
Rustem Pasha Mosque,"['Sights & Landmarks', 'Sacred & Religious Sites', 'Architectural Buildings']","One of the smaller mosques in the city, it was built by Rustem Pasa in 1561 and is noted for the very fine tiles covering the interior and exterior walls.",41.00564,4.5,28.67263,Istanbul,,294550,train
Pfingstweid Park,"['Nature & Parks', 'Parks']",,47.38808,4.0,8.512825,Zurich,,10351139,train
WorldTours,"['Tours', 'Cultural Tours', 'Walking Tours', 'Private Tours', 'Archaeology Tours', 'Day Trips']","Worldtours is a company that operates in the tourism industry for over 20 years. Our growth in tourist activity has been steady, thanks to the passion, commitment and dynamism that depth. Our main goal is to promote the territories of our region and to discover the culture, art and history of our people.We have a range of vehicles to suit any need ,from executive cars to vans and coaches of various sizes all fitted with comforts like A.C. , in car fridge etc.A long experience make us leaders in the sector ,our professional drivers are highly trained and speak fluent English.",40.837696,5.0,14.175849,Naples,,2176475,train
Maximum Escape 2,"['Fun & Games', 'Room Escape Games']","Maximum Escape is an escape room company from Barcelona. We are true escape room enthusiasts. For us it is not just a business. Our aim is to build the best escape rooms in the world, offering maximum emotions, maximum story, maximum joy and fun, maximum satisfaction and maximum quality. That's why we are MAXIMUM ESCAPE. Go Maximum!",41.38904,4.5,2.17523,Barcelona,"C. Trafalgar 17, 08010",12517366,train
Prime Pass Events - Paint A Pic,"['Classes & Workshops', 'Fun & Games', 'Paint & Pottery Studios']","Fancy exploring your creative side? Our art classes give you the chance to do so under the guidance of a pro artist in the most laid-back of settings: the pub! Our 2-hour weekly classes come to a variety of bars and boozers across London, with a different painting motif every time - attend regularly, and you'll build up a unique collection of masterpieces, created by your own fair hand. No experience necessary - just come down, unleash your creativity, and leave with your very own piece of art to take home with you!",51.507217,5.0,-0.127586,London,,24044961,train
Real Basilica de San Francisco el Grande,"['Sights & Landmarks', 'Churches & Cathedrals', 'Sacred & Religious Sites']",,40.41084,4.5,-3.71448,Madrid,,244297,train
Neue Wache,"['Museums', 'History Museums']","This guardhouse, built in Neoclassical style, was a center for East German soldiers during the Cold War and now serves as a memorial for war victims.",52.51766,4.5,13.395608,Berlin,,190596,train
German Resistance Memorial Center,"['Museums', 'History Museums']",,52.50778,4.5,13.362906,Berlin,,4751162,train
Daydream Boats Ibiza,"['Tours', 'Other', 'Boat Tours & Water Sports', 'Transportation', 'Outdoor Activities', 'Scuba & Snorkeling', 'Adrenaline & Extreme Tours', 'Taxis & Shuttles', 'Boat Tours', 'Boat Rentals', 'Speed Boats Tours']","Boat rental without a license, No License rental Boats in Ibiza, Daydream Boats Ibiza, rental boats in Ibiza",38.92147,5.0,1.42464,Ibiza,,17557819,train
Camden Market,"['Shopping', 'Flea & Street Markets']",We're driven by the belief that you can only keep discovering if you keep looking ... so we're always adding interesting stores and traders. No two days are ever the same at Camden Market. Keep checking back to see what's new and what's next.,51.541428,4.5,-0.145533,London,"32 Camden Lock Place, NW1 8AF",187577,train
Snary Mary Adventures,"['Museums', 'Fun & Games', 'Room Escape Games', 'Art Museums', 'Game & Entertainment Centers']","Snary Mary Adventures is an Escape Room Game in Zürich Altstetten. Creativity, power of deduction, sharp mind, some ambition, team spirit and the wish for thrill are qualities you need. Find the clues, solve the riddles and try to make it trough our adventures. Behind the scenes of Snary Mary Adventures we are a crew of creative, technically skilled people with a lot of love for any kind of games. Together with colleagues, friends and family our guests experience unusal stories. Become art thieves or fight as magicians against a dragon!",47.394352,4.5,8.481639,Zurich,,12799708,train
Gothic Quarter (Barri Gotic),"['Sights & Landmarks', 'Other', 'Neighborhoods', 'Historic Walking Areas']",Stroll through the historic center of medieval Barcelona and visit some of the city's most important political buildings and gothic architecture.,41.3827,4.5,2.177113,Barcelona,,190162,train
Augustinerkirche,"['Sights & Landmarks', 'Churches & Cathedrals']",,47.37189,3.5,8.53974,Zurich,,3350423,train
Elding Whale Watching,"['Tours', 'Boat Tours & Water Sports', 'Outdoor Activities', 'Boat Tours', 'Dolphin & Whale Watching', 'Eco Tours', 'Nature & Wildlife Tours', 'Sightseeing Tours']","Elding is a tour supplier in Reykjavik offering whale watching and other adventures at sea all year round. We are conveniently located just off Reykjavik's old harbor. The various types of whales commonly sighted include minke whales, white-beaked dolphins, harbor porpoises and the popular humpback whales. We will be accompanied by sea birds such as gannets, puffins, guillemots, cormorants, gulls, kittiwakes, arctic terns, and many more. Check our online Whale Diary for daily updates on whale sightings. To make our tours even more comfortable, we provide our passengers with warm (and floatable) overalls and raincoats. For safety reasons, all children under 12 years of age are required to wear life jackets during the tour.",64.15139,4.5,-21.944536,Iceland,,1108831,train
Beyoglu,"['Sights & Landmarks', 'Other', 'Neighborhoods']","This neighborhood in the modern section of the city is home to many foreign consulates, and is popular for its restaurants and nightlife.",41.031902,4.5,28.978285,Istanbul,,296219,train
Sato Code,"['Other', 'Fun & Games', 'Room Escape Games', 'Scavenger Hunts']","Sato Code: A real-life Adventure for the smart and energetic. The go-getters. The weekend warriors. Sato Code challenges are neither mere scavenger hunts, nor escape rooms or simple geocaching. Our challenges are sophisticated, interactive and multimedia, combining the real and digital worlds for the ultimate brainteaser. You think you can break our code? You’d better bring your A game.",47.37785,5.0,8.5354,Zurich,,17991191,train
Akureyrarkirkja,"['Sights & Landmarks', 'Churches & Cathedrals']",,65.67753,4.0,-18.09213,Iceland,,6840591,train
Best of Switzerland Tours,"['Food & Drink', 'Tours', 'City Tours', 'Sightseeing Tours', 'Food Tours', 'Bus Tours', 'Day Trips']","We are Switzerlands leading sightseeing operator and offer different city tours in Zürich and a wide selection of interesting excursions to the most beautiful tourist destinations in our wonderful country. Every day, we strive to exceed your expectations of a high quality service and combine it with the friendly hospitality of our professional, multi-lingual guides! Our tours are guided in English, Spanish, Mandarin and German. We are looking forward to hosting you during your time in Switzerland!",47.38039,4.5,8.537561,Zurich,,1987439,train
Hotel de Ville,"['Sights & Landmarks', 'Government Buildings', 'Points of Interest & Landmarks', 'Historic Sites']","This beautiful, 19th century building is now the seat of the French government, and features a number of displays on French history.",48.85668,4.5,2.35157,Paris,"Place de l'Hôtel de Ville, Entrée au 5 Rue Lobeau ou au 29 Rue de Rivoli, 75004",208055,train
Milonga del Mar,"['Classes & Workshops', 'Other', 'Fun & Games', 'Outdoor Activities', 'Paint & Pottery Studios', 'Sports Camps & Clinics']","Tango Argentino shows & classes on a rooftop in Gotico We are Paula and together with my partner, Jorge, we are professional Tango dancers. From Argentina, we lived in Barcelona 20 years ago. We have a Tango school in Barcelona and we give classes and shows all over the world. We accompany the classes with toasts on a spectacular roof in the heart of the Gothic. A place to have fun, relax, meet locals and discover the magic of Tango",41.37967,5.0,2.17628,Barcelona,,17738693,train
Spiridakos Sailing Cruises,"['Tours', 'Boat Tours & Water Sports', 'Outdoor Activities', 'Boat Tours']","Spiridakos Sailing Cruises is the leading Catamaran & Yacht Cruises provider in Santorini. If you are looking for exceptional quality excursions with the leading cruise provider in Santorini, Spiridakos is your guaranteed choice. We offer both Daytime & Sunset cruises in semi – private and private settings. Our fleet consists of our Azimut 43 Motor Yacht “Oceanis” and 8 Lagoon Catamarans – Bonita, Santanna, Summer, Caldera, Caldera II, Happy Day, Alma Libre & Captain Leo. These magnificent & high-performance vessels are equipped with all the luxurious amenities that will exceed your expectations. All of them are accompanied with their own captains and crew and are the best way to enjoy professional cruises for you, your family and friends, providing you with the unique chance to intimately explore the beautiful and historical island of Santorini as well as its surrounding islands, in the hypnotizing deep blue waters of the Aegean Sea.",36.420765,5.0,25.432072,Greece,,1810127,train
Makarounas Fishing Trip Rhodes,"['Tours', 'Boat Tours & Water Sports', 'Outdoor Activities', 'Fishing Charters & Tours']","Makarounas fishing trip is based in Rhodes island at Mandraki harbour.The vessel is a 10.5 meter long traditional greek fishing boat that has a capacity of 12 persons.The excursion includes fishing, swimming and snorkeling with all the necessary equipment provided.We also barbeque all fish that you will catch and onedorado (400 gr) on board, drinks included .The trip lasts 5 hours.",36.450207,5.0,28.225285,Greece,,11772329,train
Paseo del Prado,"['Sights & Landmarks', 'Points of Interest & Landmarks']",,40.41797,4.5,-3.69266,Madrid,Paseo del Prado,246517,train
Carrot Cars,"['Transportation', 'Taxis & Shuttles']","Multi Award Winning mini cab/chauffeur service company. Book your professional, yet cheap airport transfer now.",51.465523,5.0,-0.179696,London,"Suite 4 Blake House, Admirals Way, E14 9UJ",12299405,train
L'Horizon De Kheops - Expedition Immersive,"['Events', 'Cultural Events']","An immersive virtual reality expedition of unprecedented scope transporting visitors to the heart of one of the Seven Wonders of the World. From June 14 to October 2, 2022, the Arab World Institute presents the world premiere of the immersive expedition, The Horizon of Khufu. This unique and yet unseen experience – the result of three years’ research and development by EMISSIVE, the French flagship developer and award-winning company in virtual and augmented reality – invites visitors into the illusion of traveling freely, thanks to virtual reality equipment and a journey across over 500-square-meters, into the heart of one of the most significant archaeological sites of human civilization. Geared with an immersive device – a connected backpack and headset – at the cutting-edge of innovation, participants are transported within seconds over 3,000 kilometers away from Paris, to the foot of the highest-reaching pyramid in Egypt as the sun sets onto it. The adventure begins there...",48.84898,4.5,2.356478,Paris,,24105894,train
Die Mauer | The Wall - Das Museum Am Leipziger Platz,"['Museums', 'History Museums']","The Museum of the History of the Wall is located at Leipziger Platz, in the middle of Berlin. The city and its visitors have been waiting for this museum for almost 30 years. In a broad arc from 1961 to 1989, we tell about the construction of the Berlin Wall, life in the divided city and German reunification. With large-format images, concise texts and exciting exhibits.",52.509445,4.5,13.37958,Berlin,"Leipziger Platz 11, 10117",20888347,train
Musee de la Musique,"['Museums', 'History Museums', 'Specialty Museums']","This museum has nearly 1,000 different instruments on display, complete with audio commentary.",48.88992,4.5,2.393721,Paris,"Cité de la Musique, 221 Avenue Jean-Jaurès, 75019",190977,train
Help Bar,"['Nightlife', 'Bars & Clubs']",,35.286522,5.0,25.461641,Greece,"Ματθαιου Ζαχαριαδη, 700 07",4891937,train
The Herring Era Museum,"['Museums', 'Specialty Museums']","The Herring Era Museum is Iceland's largest maritime museum - where the 'glory days' of Iceland's herring fisheries and industry are brought back to life in three different buildings. Róaldsbrakki, a 1907 salting station and bunkhouse. On Saturdays featuring a live outdoor salting show and accordion dance. Grána, a 1930s-era fishmeal and oil factory. The Boathouse, the town's thriving harbour of the 1950s with many old fishing boats at the dock. The museum is officially recognized as a museum specializing in the history of the herring fisheries in Iceland. It may even be the only museum of its kind in the world. Winner of the Icelandic Museum Award in 2000 and won the European Museum Award in 2004, as Europe's best new museum of industry and technology.",66.14734,4.5,-18.91294,Iceland,,3460988,train
Congreso de Los Diputados,"['Sights & Landmarks', 'Government Buildings']",,40.416374,4.0,-3.696611,Madrid,"Cra de S. Jerónimo, s/n, 28071",6717498,train
Lord's Cricket Ground,"['Sights & Landmarks', 'Fun & Games', 'Sports Complexes', 'Arenas & Stadiums']","Lord's Cricket Ground is known as the Home of Cricket and is owned by Marylebone Cricket Club - better known, throughout the cricketing world, as MCC. Founded in 1787, MCC is the world's most famous cricket club.",51.53436,4.5,-0.174206,London,"St John's Wood Rd., NW8 8QN",188020,train
Schwamendingerplatz,"['Sights & Landmarks', 'Points of Interest & Landmarks']",,47.40486,3.5,8.57175,Zurich,,2254087,train
Sainte-Chapelle,"['Sights & Landmarks', 'Architectural Buildings', 'Churches & Cathedrals', 'Historic Sites']","The Sainte-Chapelle is the finest royal chapel to be built in France and features a truly exceptional collection of stained-glass windows. It was built in the mid 13th century by Louis IX, at the heart of the royal residence, the Palais de la Cité. It was built to house the relics of the Passion of Christ. Adorned with a unique collection of fifteen glass panels and a large rose window forming a veritable wall of light,the Sainte-Chapelle is a gem of French Gothic architecture. Designated world heritage site by UNESCO. Open:> 1st March to 31st October: Monday to Friday: from 9.30 a.m. to 12.45 a.m. and to 2.15 p.m. to 6 p.m. Saturday and Sunday: from 9.30 a.m. to 6 p.m.> 1st November to 29th February: Monday to Friday: from 9 a.m. to 12.45 a.m. and to 2.15 p.m. to 5 p.m. Saturday and Sunday: from 9 a.m. to 5 p.m. Last admission 30 minutes before closing time. The best time to visit is in the morning from Tuesday to Friday. Closed:> 1st January, 1st May and 25th December and in case of negative temperatures.",48.85546,4.5,2.3448,Paris,"8 Boulevard du Palais, 75001",190202,train
MoKa Honey,"['Sights & Landmarks', 'Farms']","Do you want to learn everything about this extraordinary insect that we call ""bee""? Visit our site, book a visit and we 'll get you to one of our apiaries, dress you as a beekeeper and show you how the bee's life is like. (Book at our website, only through appointment).",38.451393,5.0,22.429438,Greece,,10207667,train
Cala Saladeta,"['Nature & Parks', 'Outdoor Activities', 'Beaches']",,39.01146,4.5,1.297291,Ibiza,,8409215,train
Auditorio Nacional de Musica,"['Nature & Parks', 'Concerts & Shows', 'National Parks', 'Symphonies']",,40.44616,4.5,-3.67793,Madrid,,244553,train
Benimussa Park,"['Sights & Landmarks', 'Civic Centers']",,38.90246,4.5,1.41486,Ibiza,"Carrer del Romaní, 18, 07820",12172751,train
Chiesa di San Giuseppe dei Ruffi,"['Sights & Landmarks', 'Churches & Cathedrals']",,40.85307,4.0,14.25778,Naples,,5773196,train
Rumeli Fortress,"['Sights & Landmarks', 'Museums', 'History Museums', 'Historic Sites']",This three-towered fortress was built in 1452 on the Bosphorus to protect the narrow waterway from advancing ships.,41.08481,4.5,29.056154,Istanbul,"Yahyakemal Cad. No.28, 34470",295153,train
The Milkmaid Project,"['Fun & Games', 'Game & Entertainment Centers']","Your portrait by Vermeer or Rembrandt! In our professional photo studio & small 17th Century museum in the heart of Amsterdam, you can play the starring role in world famous paintings of Johannes Vermeer and Rembrandt. Step straight into the 17th Century, wearing one of our many unique 17th century clothing . By studying the paintings we were able to recreate every detail of the Milkmaid in our spectacular 3D set; the only one in the world! Or choose for a portrait like the Girl with the Pearl Earring, Titus, The Scholar, or some of the self portraits of Rembrandt. Or pose with your whole family or friends like the famous civil guards portraits such as the Night Watch. Surrounded by real 17th century props, you will learn a lot about the paintings of Johannes Vermeer. And, let's not forget, it's a lot of fun too. You leave Amsterdam with a unique and valuable memory!",52.37592,5.0,4.883482,Amsterdam,"Nieuwe Leliestraat 14-H, 1015 SP",21225438,train
Habitacion 73,"['Fun & Games', 'Game & Entertainment Centers']","The new room escape in Barcelona. A room escape is a game for groups. You will have to use the ideas, the imagination and your skills to solve the puzzles and enigmas inside the room 73,but... Before one hour..",41.407406,4.5,2.159125,Barcelona,"Carrer del Torrent de les Flors 96, 08024",7008524,train
H.P. Tours - Hellenic Private Tours,"['Tours', 'Day Trips', 'Private Tours', 'City Tours', 'Historical & Heritage Tours', 'Sightseeing Tours']","Hellenic Private Tours (H.P. Tours) specializes in private transfers, sightseeing tours and shore excursions in Athens and the mainland of Greece using latest models Mercedes vehicles that can accommodate from 1-50 passengers. Our English speaking drivers and guides will be more than happy to assist you. Booking a private tour through us will give you the added benefit of visiting archaeological sites at different times from the large tour buses and groups of visitors, thus enabling you to experience the wonderful monuments and learn their history at a time of the day when they are not overcrowded. We will be more than happy to welcome you to Athens - Greece and offer you a memorable time!",37.976383,5.0,23.73456,Greece,,3138366,train
Memorial to the Sinti and Roma Victims of National Socialism,"['Sights & Landmarks', 'Monuments & Statues', 'Points of Interest & Landmarks']",,52.517258,4.0,13.376013,Berlin,,2655806,train
Matadero Madrid,"['Shopping', 'Museums', 'Concerts & Shows', 'Theaters', 'Art Galleries']",,40.39203,4.5,-3.698056,Madrid,,2412546,train
Museo de la Catedral de la Almudena,"['Sights & Landmarks', 'Museums', 'Churches & Cathedrals', 'History Museums']","El Museo de la Catedral de la Almudena de Madrid tiene como mision conservar, exhibir, investigar y comunicar los testimonios tangibles e intangibles de la historia de la diocesis de Madrid. La visita muestra a los Patronos de Madrid: La Virgen de la Almudena y San Isidro Labrador, y un recorrido por la vida de la Iglesia a traves de los siete sacramentos. Con el fin de que cada uno descubra, reflexione y construya valores de fe, historia y union con la Iglesia de Madrid, su Catedral y su Patrona, a partir de su propia experiencia.",40.41523,4.5,-3.71458,Madrid,"Plaza de la Almudena S/N, 28013",5888902,train
El Hachazo,"['Fun & Games', 'Shooting Ranges']",,40.405518,5.0,-3.678604,Madrid,"Calle de Narciso Serra, 15, 28007",14792725,train
Clue Hunter Madrid,"['Fun & Games', 'Room Escape Games']",Are you still searching for a different room escape game? Come and visit us in Madrid!! Fun and mistery are guaranteed. A unique and fun game where you have to work in a group of 2-5 people to get out of a mysterious room solving riddles and puzzles in less than 60 minutes. You will be locked up in the basement of an abandoned house in the mountains and no one can come and save you. Your only way of escaping from the scary owner will be to use your wits and perception. We have two twins rooms to work in a group of 6-10 people.,40.411194,5.0,-3.705689,Madrid,"Calle Juanelo 13, Local Izdo, 28012",10180821,train
Villa Doria Pamphili,"['Sights & Landmarks', 'Nature & Parks', 'Parks', 'Architectural Buildings', 'Gardens']",,41.898224,4.5,12.472618,Rome,,590539,train
Barcelona Moto Rent,"['Outdoor Activities', 'Gear Rentals']",Barcelona Moto Rent is the best and the cheapest scooter rental company in Barcelona. We ensure you high-quality scooters in order to visit Barcelona and make your own trip .,41.39199,4.5,2.17018,Barcelona,"Carrer de Roger de Llúria, 31, 08009",3975730,train
Theater 11,"['Concerts & Shows', 'Theaters']",,47.410873,4.0,8.549655,Zurich,,8019185,train
Britzer Garten,"['Nature & Parks', 'Parks']",,52.4289,4.5,13.43538,Berlin,,1866386,train
Ushuaia Ibiza,"['Outdoor Activities', 'Beach & Pool Clubs']","The world’s best Beach Club* has been transformed into a hotel that boasts a unique personality with out-of-this-world spaces designed to entice and stir up all the senses.The best music, the coolest parties in Ibiza, the most exclusive ambience, quality cuisine and customer service that redefines the real meaning of VIP have turned this Beach Club into one of the most exciting places on the island, summer after summer.The Club’s beachfront restaurant offers a select and exquisite Mediterranean menu with signature cuisine flairs, fresh fish, grilled meats, extensive wine list and champagne. You can also enjoy tasty cocktails or fresh smoothies at the Club’s cocktail bar.*According to the renowned Deejay Magazine.",38.91217,4.5,1.43049,Ibiza,"Carretera De, Platja D'En Bossa, 10, 07817",2432420,train
Abbaye de Saint-Germain-des-Pres,"['Sights & Landmarks', 'Churches & Cathedrals', 'Sacred & Religious Sites']","One of the oldest churches in the city, this cathedral's interior is highlighted by a series of colorful frescoes.",48.85403,4.5,2.33367,Paris,"3 Place Saint Germain des Prés, 75006",653106,train
Musee de l’Orangerie,"['Museums', 'Specialty Museums']","Most famous for its display dedicated to Monet's Water Lilies, this gallery in the Tuileries Gardens has a wide collection of impressionist and post-impressionist works.",48.863743,4.5,2.322778,Paris,"Jardin des Tuileries - Côté Seine, Place de la Concorde, 75058",265635,train
Priorato dei Cavalieri di Malta,"['Sights & Landmarks', 'Nature & Parks', 'Architectural Buildings', 'Gardens', 'Points of Interest & Landmarks']",,41.88299,4.5,12.47852,Rome,,3213388,train
Naxia Natura,"['Shopping', 'Gift & Specialty Shops']",,37.06311,5.0,25.48258,Greece,,11797472,train
Gourmaze,"['Fun & Games', 'Scavenger Hunts']","An immersive treasure hunt adventure through the city. Challengers must solve a stream of riddles and clues sent to their phone, leading them to hidden food gems at each milestone of the maze. The perfect cross between an escape room and food walking tour. Pick one of our tasty treasure hunts: 'The Sweet Escapes' for delectable desserts, or 'The Talisman Treats' for Asian street food delights.",51.507217,5.0,-0.127586,London,,24034833,train
Museo Cerralbo,"['Sights & Landmarks', 'Museums', 'Historic Sites', 'Architectural Buildings', 'Art Museums']",,40.42377,4.5,-3.71459,Madrid,"C/ Ventura Rodríguez, 17, 28008",261853,train
Escape Room Questhouse,"['Fun & Games', 'Room Escape Games']",,41.91268,5.0,12.507272,Rome,,13329257,train
420CAFE,"['Nightlife', 'Bars & Clubs', 'Coffeehouses']",,52.375946,4.5,4.895865,Amsterdam,"Oudebrugsteeg 27, 1012 JN",3853211,train
Kanyon Shopping Center,"['Shopping', 'Department Stores', 'Shopping Malls']","Kanyon Istanbul is fusing a unique approach to shopping, entertainment, and retail in an extraordinary architectural shell. Kanyon features 160 stores, 9 cinema screens, fitness center. Top local and global brands, cafes, and open air performances are set in an atmosphere alive. Kanyon houses trendsetting prestigious brands with the world-famous fashion retailer Harvey Nichols and Vakko.",41.078262,4.0,29.011454,Istanbul,"Büyükdere Cad. No:185 Levent, Beşiktaş",622597,train
Escape Room Napoli,"['Fun & Games', 'Room Escape Games']",,40.822395,4.5,14.1917,Naples,,8526868,train
Istanbul Tunnel,"['Transportation', 'Taxis & Shuttles']",,41.028473,4.5,28.974028,Istanbul,,3808367,train
The Shops At Crystals,"['Shopping', 'Shopping Malls']","Anchored by more than 15 flagship stores, including Louis Vuitton, Gucci, Dolce & Gabbana, Tom Ford, Prada, Celine, Fendi and Tiffany & Co., The Shops at Crystals is an amazing collection of 50 of the finest luxury brands in the world, all under one roof. The gorgeous architecture, convenient location on the Las Vegas Boulevard, and exclusive luxury retailer lineup, make The Shops at Crystals a must-see for any visitor.",36.107887,4.0,36.107887,Las Vegas,"3720 S Las Vegas Blvd, 89158",2433371,train
Bogatell Beach,"['Nature & Parks', 'Outdoor Activities', 'Beaches']",,41.39676,4.0,2.20834,Barcelona,,7052313,train
"Meltemi Boat Tours, Watersports & Diving","['Tours', 'Boat Tours & Water Sports', 'Outdoor Activities', 'Boat Tours', 'Water Sports', 'Boat Rentals', 'Speed Boats Tours', 'Kayaking & Canoeing']","Meltemi Watersports & Tours. We offer a variety of water sports and tours, to cater for all needs, from Canoe Safaris, Speed Boat Adventures, to Winery tours on the neighbouring island Sikinos. We offer private boat tours, Speed boat Adventures or scenic boat tours, allowing you to enjoy the best beaches and amazing coastline of Ios. A luxury way to enjoy Ios Island at it's best, relaxing on a Speed Boat listening to great tunes. Take the scenic tours around a stunning secluded Greek Island, to picture Post-Card beaches. Explore unique underwater caves, snorkel in the Aegean sea, on reefs and shipwrecks in it's crystal blue waters, relax and enjoy your lunch on your own private beach.",36.710377,5.0,25.295519,Greece,,3299646,train
Dark Matter Berlin,"['Shopping', 'Museums', 'Specialty Museums', 'Art Galleries', 'Art Museums']","DARK MATTER is a parallel cosmos of expansive light installations in which the boundaries between the real and the digital worlds become blurred. Within the pitch-black rooms of a converted factory, the visitor embarks on a journey through seven partly interactive works. Light, movement and sound fuse into emotional choreographies of luminous shapes and colors.",52.49231,4.5,13.49191,Berlin,,23313131,train
Towers of Notre-Dame Cathedral,"['Sights & Landmarks', 'Churches & Cathedrals', 'Historic Sites', 'Architectural Buildings']","A visit of the Towers of Notre Dame de Paris, built from 1160 in the Flamboyant Gothic style, gives visitors a close-up view of the Cathedral's flying buttresses, spires and roofs. Gargoyles and chimeras adorn the outer gallery of the North Tower with its ribbed vaulting and spiral staircase, while the South Tower houses the belfry and Emmanuel, the great bourdon bell. The upper gallery provides magnificent views of Paris, the Seine and the succession of bridges across the river. Designated world heritage site by UNESCO.Open:> 1st April to 30th September: from 10 a.m. to 6.30 p.m.> From July to August on Saturday and Sunday: until 11 p.m. (evenings).> 1st October to 31st March: from 10 a.m. to 5.30 p.m. Last admission 45 minutes before closing time.Closed:> 1st January, 1st May and 25th December.Admission fees: Adults : 8,5€; Concessions (18 to 25) = 5,50 €; Free admission: minors under 18*; Free admission: 18-25 years old* (citizens of one of the 27 countries of the EU or are non-European permanent residents of France) * excluding school groups",48.85312,4.5,2.35072,Paris,"Rue du Cloître Notre-Dame, 75004",2397509,train
Aerobus,"['Transportation', 'Bus Transportation', 'Taxis & Shuttles']","Aerobus is the official shuttle bus that connects Barcelona Airport (terminals 1 & 2) to Barcelona's city center. Every 5 minutes, 24 hours, 365 days a year in just 35 minutes. Along the route the bus stops at several important points of the city: Plaça Espanya, Gran Via-Urgell, Placa Universitat and Plaça Catalunya. Faster. More frequent. Economical. WiFi and USB charge onboard.",41.38733,4.5,2.170794,Barcelona,,7793346,train
Church of Santa Barbara (Salesas Reales),"['Sights & Landmarks', 'Sacred & Religious Sites']",,40.42374,4.5,-3.69346,Madrid,,1467694,train
Musee Paleontologique de Zurich,"['Museums', 'Natural History Museums']",,47.37522,4.5,8.54801,Zurich,,10124281,train
Ibizaloe,"['Shopping', 'Sights & Landmarks', 'Farms', 'Gift & Specialty Shops']","Located in the heart of Ibiza, our organic Aloe Vera Plantation and Museum is an ideal place to take a break from the noise. Join one of free guided tours to find out about Aloe Vera history, beneficial properties and uses throughout millennia. Learn how to cut fresh aloe leaf to extract the pulp and try our organic and ecological cosmetics range.",38.97697,4.5,1.32251,Ibiza,,15529790,train
Kleifarvatn Lake,"['Nature & Parks', 'Bodies of Water']",,63.94405,4.5,-21.97706,Iceland,,4091745,train
Adventure Rooms Roma,"['Fun & Games', 'Room Escape Games']","adventureroomsroma is a structure made up of 6 types of rooms, including Escape from Alcatraz (the two-storey escape room is the largest in Rome) and The bunker included in the list of the top50 escape rooms in the world; customer reviews on Tripadvisor place it at the top of the ranking.",41.90716,5.0,12.53883,Rome,"Via Pio Molajoni, 72, Angolo via Vassallo, 00159",11908932,train
Stadtpolizei Zuerich - Giacometti-Halle,"['Sights & Landmarks', 'Points of Interest & Landmarks', 'Architectural Buildings']",,47.374836,5.0,8.54159,Zurich,,18848285,train
Perlan,"['Sights & Landmarks', 'Museums', 'Specialty Museums', 'Points of Interest & Landmarks', 'Observation Decks & Towers']","Perlan is a Nature Exploratorium and one of Reykjavik’s main landmarks. You can learn all about Icelandic nature in a fun and interactive ways at Perlan's museum. Some highlights include a real indoor ice cave, hands-on exhibits, a life-size bird cliff full of life, and a show about volcanoes. There is also a Planetarium dome theatre where the northern lights virtually dance all around you. --- The 360 views from Perlan are spectacular in all directions. You see all over the Reykjavik area, the ocean, and the mountains around --- Perlan is close to the city center and there is plenty of free parking.---",64.12911,4.5,-21.91852,Iceland,,246003,train
Parthenon,"['Sights & Landmarks', 'Architectural Buildings', 'Ancient Ruins', 'Historic Sites']","The majestic ruins of an ancient Greek building, known for its dignified white marble columns and perfect sense of proportion.",37.971386,4.5,23.726585,Greece,"Ακρόπολη, Στην κορυφή του Διονυσίου Αρεοπαγίτου, 105 58",198711,train
Dalt Vila,"['Sights & Landmarks', 'Other', 'Neighborhoods']",,38.907673,4.5,1.436361,Ibiza,,841040,train
Hatzis Leather,"['Shopping', 'Gift & Specialty Shops']","The leather workshop Hatzis since 1973, manufactures handmade bags, sandals, belts and accessories from genuine leather. You are more than welcome to visit our place and guide you around the workshop and show you step by step how a piece of leather can become a useful daily item.",35.31604,5.0,25.390276,Greece,"Ελευθερίας 17, 700 14",11962380,train
Fly & Race Simulations GmbH,"['Fun & Games', 'Game & Entertainment Centers']",,47.381805,5.0,8.532423,Zurich,,14084959,train
Secret Studio,"['Fun & Games', 'Room Escape Games']","Secret Studio is an exciting retro-themed mystery escape game! You and your team are locked inside the headquarters of 'Secret Studio Films', a (fictional) down-at-heel schlock movie production office that hasn't been refurbished since 1979. You have an hour to solve the puzzles inside the room and unlock the mystery to escape. Work together as a team to try and beat the clock...",51.517223,5.0,-0.071069,London,"Wentworth St, E1 7SA",7951640,train
Basoa Cocktail Bar,"['Nightlife', 'Bars & Clubs']",Do you want a cocktail? Welcome to BASOA. The best cocktail in town. Pool table. Open till late. Good vibes. We are waiting for you,38.954514,5.0,1.518382,Ibiza,,12435479,train
Schiffbau,"['Concerts & Shows', 'Theaters']",,47.388706,4.5,8.519185,Zurich,,3339475,train
Seebad Utoquai,"['Sights & Landmarks', 'Piers & Boardwalks']",,47.361668,4.5,8.547609,Zurich,,3502180,train
Prison Experience Barcelona,"['Fun & Games', 'Room Escape Games', 'Game & Entertainment Centers']","Prison Experience is a new concept that mixes the classic elements of an Escape Room with the full immersive experience of the theater. 75 thrilling minutes where the objective to escape goes beyond a mere game, here you experience and live as a prisoner would. Through an atmosphere inspired by real penitentiary centers and professional actors who completely embody in the roles of guards or prisoners, players will have to be smarter and quicker than the guards in order to escape. Welcome to Prison Experience, a place where you surrender your freedom and we set the rules. Will you be able to escape?",41.410854,5.0,2.186185,Barcelona,,18894734,train
Prince of Wales Theatre,"['Concerts & Shows', 'Theaters']","Prince of Wales Theatre will run the mesmerizing London musical, Book of Mormon or Let It Be London musical tickets, which has already set the Broadway box office register ringing!",51.51021,4.5,-0.13143,London,"31 Coventry Street, Westminster, W1D 6AS",189037,train
La Nave Salinas,"['Shopping', 'Museums', 'Art Museums', 'Art Galleries']","La Nave Salinas is an exhibition space that specializes in international contemporary art and is adjacent to the Ses Salines Natural Park, Ibiza. Inaugurated in 2015, it has presented memorable exhibitions of artworks. Free Admission",38.841778,5.0,1.383798,Ibiza,,14892298,train
Templum Salutis,"['Spas & Wellness', 'Spas']",,41.87811,5.0,12.54096,Rome,,2015907,train
Camping Cars Car Rental,"['Transportation', 'Taxis & Shuttles']",,63.97126,5.0,-22.52666,Iceland,,11714676,train
Esencia Viva Ibiza,"['Tours', 'Other', 'Boat Tours & Water Sports', 'Outdoor Activities', 'Canyoning & Rappelling Tours', 'Scuba & Snorkeling', 'Gear Rentals', 'Kayaking & Canoeing']","Somos un proyecto de turismo sostenible, nos dedicamos a las rutas de kayak de multiaventura en el norte de la isla de Ibiza.
En diversas rutas realizamos diferentes actividades al gusto del cliente. Visitas a cuevas marinas, snorkel, salto de acantilado, incluso psicobloc.
Todas nuestras rutas tienen una parada en diferentes calas, donde disfrutaremos de un tiempo libre.",38.9069,5.0,1.41137,Ibiza,,17195513,train
Obelisco di San Gennaro,"['Sights & Landmarks', 'Points of Interest & Landmarks', 'Monuments & Statues']",,40.852116,4.5,14.260159,Naples,,11964231,train
Basilica di Santa Sabina,"['Sights & Landmarks', 'Historic Sites', 'Sacred & Religious Sites', 'Churches & Cathedrals']",,41.88443,4.5,12.47995,Rome,,243030,train
Selfoss Waterfall,"['Nature & Parks', 'Waterfalls']",,65.80481,4.5,-16.386702,Iceland,,7008047,train
Tasso Alcolico,"['Nightlife', 'Food & Drink', 'Fun & Games', 'Concerts & Shows', 'Bars & Clubs', 'Breweries', 'Comedy Clubs']","Nestled in the heart of Naples' Girolamo Santacroce neighborhood, Tasso Alcolico is a haven for craft beer enthusiasts and cocktail aficionados. With an extensive selection of craft beers on tap and in bottles, it caters to beer lovers seeking variety. But what truly sets Tasso Alcolico apart is its extraordinary cocktail menu, featuring innovative creations you won't find elsewhere. The cozy ambiance is perfect for a relaxed evening with friends or a romantic night out. Discover this local gem and embark on a flavorful journey in Naples!",40.84886,5.0,14.236867,Naples,"Via Girolamo Santacroce 61, 80129",26637193,train
The Cave Vidgelmir,"['Nature & Parks', 'Caverns & Caves']",,64.402275,5.0,-21.805115,Iceland,,23563477,train
Barcelona Cathedral,"['Sights & Landmarks', 'Churches & Cathedrals']",A beautiful gothic cathedral with stained glass windows dating back 500 years.,41.38442,4.5,2.17601,Barcelona,,191048,train
Best VIP Istanbul Airport Transfer,"['Other', 'Transportation', 'Taxis & Shuttles']",We are the best luxury VIP airport transfer and tour agency in Istanbul. We provide VIP luxury transfer in Istanbul and Antalya. We have many luxury vehicles. You can visit our official web sites and check all details.,41.03458,5.0,28.85704,Istanbul,,18191114,train
Musee de la Chasse et de la Nature,"['Museums', 'Specialty Museums']",,48.861313,4.5,2.358611,Paris,"62 Rue des Archives, Le Marais, 75003",232162,train
Guided Istanbul Tours,"['Tours', 'City Tours', 'Walking Tours', 'Historical & Heritage Tours', 'Private Tours', 'Cultural Tours']",'Guided Istanbul Tours' is a privately-owned business run by the professional tour guides which caters to the independent travellers who want to see Istanbul on a one-to-one basis. Top quality private day tours and shore excursions are available to all the main sites in Istanbul with personal pick-up and drop-off included,41.00813,5.0,28.97605,Istanbul,"Alemdar Mah. Divanyolu Caddesi, No:22 Kat 3 Fatih-İstanbul, 34110",4053683,train
Godafoss,"['Nature & Parks', 'Waterfalls']",,65.68331,4.5,-17.548983,Iceland,,283481,train
Royal Palace of Madrid,"['Sights & Landmarks', 'Architectural Buildings', 'Historic Sites']","Luxurious, over-the-top rococo palace with over 2,000 opulently gilded rooms.",40.417755,4.5,-3.714083,Madrid,"Plaza De Oriente S/n, 28071",190146,train
Colle Capitolino,"['Sights & Landmarks', 'Points of Interest & Landmarks', 'Historic Sites', 'Lookouts', 'Historic Walking Areas']","The political and religious center of ancient Rome, this is the smallest, but the most famous, of the Seven Hills of Rome, which features the Senate.",41.8933,4.5,12.48287,Rome,Piazza del Campidoglio,191409,train
Askeri Muze ve Kultur Sitesi KomutanlIgI,"['Museums', 'Military Museums']",,41.04906,4.5,28.98851,Istanbul,Valikonagi Caddesi,317499,train
Via dei Fori Imperiali,"['Sights & Landmarks', 'Points of Interest & Landmarks', 'Historic Walking Areas']",,41.895508,4.5,12.484674,Rome,"Via dei Fori Imperiali, 00186",10753567,train
Gula Gula,"['Concerts & Shows', 'Performances', 'Dinner Theaters']","Dinner Show show on Madrid's Gran Vía with open bar of drinks. A luxurious artistic cast with some of the most important drag queens in our country, guest artists and a team of waiters and professionals, . Make the nights at Gula Gula shine with their own light. An ideal place to enjoy with friends, you and your partner, dinners for gay friendly bachelor parties and bachelorette parties in Madrid, company dinners in Madrid, celebrations… etc. . Any excuse is good to enjoy one of the best dinner shows in the capital. At Gula Gula we create with our hearts.",40.41991,4.5,-3.707722,Madrid,"Calle de Preciados, 46, Esquina Plaza de Santo Domingo, 28013",23300178,train
Templo de Debod,"['Sights & Landmarks', 'Architectural Buildings', 'Ancient Ruins']",This place is temporarily closed due to technical problems. The Egyptian temple dating back to the second century B.C. was transported to Madrid’s Cuartel de la Montana Park.,40.424004,4.0,-3.71776,Madrid,,244303,train
Museu d'Historia de Barcelona - MUHBA,"['Museums', 'History Museums']","Ancient and medieval Barcelona in the monumental ensemble beneath Plaça del Rei, organised in the 20th century. A tour through 4,000 square metres in an underground archaeological site that takes us from Barcino to Barcinona. Exhibition on the emergence of the medieval city. Visit to the Palau Reial Major palace.",41.384056,4.5,2.17754,Barcelona,"Placa del Rei, S/N, Barri Gotic, 08002",244210,train
Original Berlin Walks,"['Tours', 'Sightseeing Tours', 'Private Tours', 'Cultural Tours', 'City Tours', 'Walking Tours']","Original Berlin Walks offers award-winning tours every day. Whether you want to join a public group tour or book a private tour, Original Berlin Walks will turn your Berlin trip into an unforgettable experience. Over the years Tripadvisor has awarded Original Berlin Walks 6 ""Best of the Best"" (top 1%) awards, so you know that when you book with Original Berlin Walks you will receive top-quality service and expert, experienced guides.",52.506382,5.0,13.470783,Berlin,,735931,train
Camlica Hill,"['Sights & Landmarks', 'Points of Interest & Landmarks']",,41.028328,4.5,29.067612,Istanbul,,1899792,train
KulturBrauerei,"['Shopping', 'Concerts & Shows', 'Shopping Malls', 'Theaters']",,52.5387,4.0,13.413305,Berlin,,304857,train
Basilica dell'Annunziata Maggiore,"['Sights & Landmarks', 'Churches & Cathedrals']",,40.85108,4.5,14.2648,Naples,,3410194,train
Fat Taxi,"['Transportation', 'Taxis & Shuttles']","Airport transfer in Istanbul is a fast-growing sector yet still catching up on the international competition. Fat Taxi was born out of our ambition to welcome travellers upon their arrival to Istanbul and make their journey from/to Istanbul airport and Sabiha Gökçen airport safe, comfortable and with a premium feel. We are a group of friends who felt that airport taxi services should be honest, of premium customer service yet affordable. With years of experience in hospitality, customer service and marketing, and being frequent travellers ourselves, we wanted to create a trusted brand that sets the standards in the industry and make people feel looked after while travelling in a somehow chaotic Turkey.",40.968056,5.0,28.82534,Istanbul,,14102628,train
Humboldthain Flak Tower,"['Sights & Landmarks', 'Observation Decks & Towers', 'Points of Interest & Landmarks']",,52.547497,4.5,13.385085,Berlin,,7185858,train
Teatro de la Zarzuela,"['Concerts & Shows', 'Theaters']",,40.41723,4.5,-3.697124,Madrid,,244533,train
Colonna Traiana,"['Sights & Landmarks', 'Monuments & Statues', 'Points of Interest & Landmarks']",,41.89581,4.5,12.484364,Rome,Via dei Fori Imperiali,501637,train
Musee d'Orsay,"['Museums', 'Art Museums']","Musée d'Orsay in Paris is a must-visit for art lovers and travelers alike. It's famous for its impressive collection of Impressionist and post-Impressionist art, making it one of the largest in the world. Housed in a stunning former railway station on the Seine, the museum is just as beautiful on the outside as it is on the inside. Don't miss the famous clock face, which is part of the museum's exhibition. For an in-depth experience, you might want to join a private or group tour. Visit in the morning to beat the crowds and enjoy a quieter museum experience. – Tripadvisor",48.860035,4.5,2.32685,Paris,"1 Rue De La Légion d'Honneur, 75007",188150,train
Fun London Tours,"['Tours', 'Sightseeing Tours', 'Private Tours', 'City Tours', 'Walking Tours']","Fun London Tours is an exciting, fresh and innovative tour company whose guides will provide you with the highlight of your stay in London. We are qualified, insured, experienced, and engage you with our knowledge, humour and enthusiasm. Come on a Fun London Tour!",51.549553,5.0,-0.084243,London,E2 0JF,3975717,train
KadIkoy CarsIsI,"['Shopping', 'Flea & Street Markets']",,40.990257,4.5,29.024832,Istanbul,"Caferağa, Neşet Ömer Sk. No:1, Kadıköy, 34710",11707822,train
KidZania,"['Sights & Landmarks', 'Water & Amusement Parks', 'Fun & Games', 'Theme Parks', 'Points of Interest & Landmarks', 'Game & Entertainment Centers']","The story of KidZania started in Mexico City, the capital city of Mexico, to give kids a taste of the jobs of their dreams at an exclusive location where fun and education intersect. Opened for the first time in Santa Fe in 1999, KidZania operates today in 34 cities across 22 countries. KidZania is one of the fastest growing kid’s interactive entertainment brands in the world. It is an interactive kids’ city combining inspiration, fun and learning through realistic role-play for children 0-14. Kids independently explore an 10,000 square foot kid-sized city with over 120 exciting careers that they can try.",41.000862,4.5,29.05477,Istanbul,"Çeçen Sok. No: 25A, Akasya Mall, 34660",6674657,train
L'Anella Olimpica de Montjuic,"['Sights & Landmarks', 'Fun & Games', 'Sports Complexes', 'Historic Sites']",1992 Olympic complex centered around the 1936 Olympic Stadium.,41.36602,4.0,2.15415,Barcelona,,265457,train
Centro Comercial Principe Pio,"['Shopping', 'Shopping Malls']","Set inside an old train station, this unique shopping mall is the first in Spain to open every day of the year. It offers well-known brand stores, a food court, and entertainment options.",40.42198,4.0,-3.720526,Madrid,,2573161,train
Nieuwe Kerk,"['Museums', 'Specialty Museums']",,52.37313,3.5,4.89008,Amsterdam,,8869177,train
Horse Riding Tour,"['Outdoor Activities', 'Horseback Riding Tours']","Naples; the city known for its disarray and chaos. And of course, Mount Vesuvius... One of the most dangerous volcano in the world sleeping behind the bay of Naples in peace and silence... The famous view and the symbol of the city...
What about the opposite side of this spectacular view? We now urge you to experience it with your own eyes, but not simply on your own feet. Instead, from a different angle; atop horseback! You will be surprised with the beauty of Naples and the islands.... And with this opportunity you are also granted special permission to ride in the national park of Vesuvius, instead of taking the bus with all the other tourists!
You will be escorted by coach from your hotel and driven to the stable where you will be given a short briefing by our professional guide. You will then embark on your relaxing tour, riding under the trees, passing by grape fields, climbing up ancient railways, following the way of lava, stopping by the volcanic rocks for a breathtaking view; and of course some pictures; and then galloping up the path and back....
You will be on horseback for around 2-2.5 hours, depending on how fast you are. And after the tour, the couch will drive you back to your hotel. (or to Pompeii, Herculaneum, if you prefer to visit the ruins afterwards)
Don’t worry if you’ve never ridden before. You won’t be the only one and the course is designed for beginners, children and all experience levels. (Little children can ride with their parents or with our guides)
We require a minimum of 2 and a maximum of 9 people to organize the tours. However, if you are a lone traveler, contact us anyways and we will add you one of the confirmed groups.
We are flexible on our tour start times and meeting points in order to best accommodate you on your vacation.
We guarantee you an unforgettable day! Enjoy the beautiful view of Naples bay and the islands in a relaxing way from one of the most dangerous volcano on the earth… Sunset Tours also available everyday...",40.831627,4.5,14.394836,Naples,,8353108,train
Air Zone Ibiza,"['Fun & Games', 'Game & Entertainment Centers']",,38.972347,5.0,1.3083900000000002,Ibiza,"Cami des Moli No. 3, 07820",4340417,train
Primrose Hill,"['Sights & Landmarks', 'Other', 'Nature & Parks', 'Parks', 'Neighborhoods']",,51.53956,4.5,-0.1607589999999999,London,"Primrose Hill Road, NW3",2464189,train
Gullfoss Waterfall,"['Nature & Parks', 'Waterfalls']",Considered by many to be the country's most beautiful waterfall.,64.327,4.5,-20.123133,Iceland,,1740559,train
Icelandic Phallological Museum,"['Museums', 'Specialty Museums']","The Icelandic Phallological museum opens after a major ʹfaceliftʹ The Icelandic Phallological Museum has relocated to a bigger space right by the harbor in downtown Reykjavik. With triple the space, scores of new exhibits, interactive features, and a phallic themed bistro, the visitorʹs experience is improved in every way. The new address is in Hafnartorg, and the entrance in Reykjastraeti",64.1485,4.5,-21.935822,Iceland,,2039593,train
German Museum of Technology,"['Museums', 'Science Museums']","The museum presents a broad spectrum of old and new technology. Permanent exhibits include rail transport, navigation, writing and printing, aerospace, film technology, telecommunications, textile and road traffic.",52.499115,4.5,13.37771,Berlin,,559453,train
Bagdat Street,"['Sights & Landmarks', 'Other', 'Neighborhoods']","This bustling street, which stretches from the Bostanci neighborhood to Goztepe, is a lively spot all year round. It's an upscale area that's a hangout for celebrities, lined with luxurious shops and fine-dining restaurants. It's not just for the glitz and glamour, though—there are plenty of cafes, shops, and casual dining that cater to all budgets. Enjoy a cocktail or two at a trendy bar or sip on some Turkish tea at a traditional cafe. The sunsets by the seaside are exceptionally stunning too. For the best insider tips, sign up for a city tour with a knowledgeable guide who will show you the best places to eat, drink, and shop. – Tripadvisor",40.95344,4.0,29.095177,Istanbul,Asya Yakası,548907,train
Dalahestar,"['Outdoor Activities', 'Horseback Riding Tours']",Dalahestar Horse Rental offers riding tours in small groups in the pristine nature of West Iceland. The tours are personalised and suitable for both beginners and advanced riders. The most popular and appreciated route on our repertoire is a two hours beach tour.,65.10637,5.0,-21.75984,Iceland,,12709038,train
